siren,nom_orig,nom_pappers,objet_social,code_naf,libelle_naf,forme_juridique,date_creation,entreprise_cessee,date_cessation,adresse_ligne_1,complement_adresse,code_postal,ville,latitude,longitude,enseigne,nom_commercial,siret_siege,nb_etablissements_actifs,nb_etablissements_total,procedure_collective_en_cours,derniere_procedure_type,classification_finale,source_classification
818863821,JINFA,JINFA,"Pressing blanchisserie, retoucherie",96.01B,Blanchisserie-teinturerie de détail,"SARL, société à responsabilité limitée",2016-02-29,False,,16 B RUE JOUFFROY D'ABBANS,,75017,PARIS,48.886593999801846,2.311193000002853,JINFA,JINFA,81886382100018,1,1,False,Liquidation judiciaire,PRESSING,A4_reclass
478663180,AU FIL DE L'EAU,AU FIL DE L'EAU,PRESSING LAVERIE,96.01B,Blanchisserie-teinturerie de détail,"SARL, société à responsabilité limitée",2004-08-24,False,,75 RUE DE BELLEVUE,,92100,BOULOGNE-BILLANCOURT,48.83520199980187,2.2308660000031835,,,47866318000014,0,2,False,Liquidation judiciaire,MIXTE,A4_reclass
535406375,SAVOIR FER,SAVOIR FER,Pressing,96.01B,Blanchisserie-teinturerie de détail,"SARL, société à responsabilité limitée",2011-10-19,False,,48 RUE GABRIEL PERI,LOT DU MARCHE,92320,CHATILLON,48.801381999801826,2.2868300000029507,,,53540637500019,1,1,False,,PRESSING,A4_reclass
510257207,OUSMER SARL,OUSMER SARL,Laverie libre service automatique.,96.01B,Blanchisserie-teinturerie de détail,"SARL, société à responsabilité limitée",2009-02-01,False,,19 RUE CLAVEL,,75019,PARIS,48.87523499980184,2.3840590000025523,SARL OUSMER,OUSMER SARL,51025720700017,1,1,False,,LS_PURE_NEW,A4_reclass
753106160,MANU,MANU,PRESSING RETOUCHE ET COUTURE EN TOUT GENRE,96.01B,Blanchisserie-teinturerie de détail,"SARL, société à responsabilité limitée",2012-08-01,False,,44 COURS DE VINCENNES,,75012,PARIS,48.84737999980185,2.402889000002472,,,75310616000017,1,1,False,,PRESSING,A4_reclass
814397899,RAIMELA,RAIMELA,"Pressing, cordonnerie, clés minutes, retouches. Vente de prêt à porter.",96.01B,Blanchisserie-teinturerie de détail,"SARL, société à responsabilité limitée",2015-10-29,False,,4 PASSAGE DU POTEAU,,75018,PARIS,48.8973699998018,2.3373900000027463,,,81439789900018,0,1,False,,PRESSING,A4_reclass
809904071,LIN YUN,LIN YUN,Pressing et retouche de vêtement.,96.01B,Blanchisserie-teinturerie de détail,"SAS, société par actions simplifiée",2015-02-24,False,,36 RUE JEAN MARIDOR,,75015,PARIS,48.83822999980183,2.287387000002949,PRESSING,,80990407100010,1,1,False,,PRESSING,A4_reclass
793940222,CAROCAT,CAROCAT,"Pressing, teinturerie, blanchisserie, nettoyage à sec, clés minutes, remaillage.",96.01B,Blanchisserie-teinturerie de détail,"SAS, société par actions simplifiée",2013-07-01,False,,3 RUE HENRI RIBIERE,,75019,PARIS,48.87635799980183,2.395117000002505,PLACE DES FITES,,79394022200029,1,2,False,,PRESSING,A4_reclass
919151597,ATELIER DE LA CHEMISE,ATELIER DE LA CHEMISE,Repassage - lavage - blanchisserie - dépôt pressing - retouches,96.01B,Blanchisserie-teinturerie de détail,"SASU, société par actions simplifiée unipersonnelle",2022-01-21,False,,221 RUE CHAMPIONNET,,75018,PARIS,48.89342499980183,2.329708000002778,,ATELIER DE LA CHEMISE,91915159700011,1,1,False,,PRESSING,A4_reclass
752899385,LE MAROIS PEPINIERE,LE MAROIS PEPINIERE,"Pressing automatique, laverie.",96.01B,Blanchisserie-teinturerie de détail,"SARL, société à responsabilité limitée",2012-07-12,False,,26 RUE DE LA PEPINIERE,,75008,PARIS,48.87508899980182,2.3210030000028126,LE MAROIS PEPINIERE,,75289938500013,1,1,False,,MIXTE,A4_reclass
421348426,NINIVE,NINIVE,PRESSING BLANCHISSERIE LAVERIE REPASSERIE,96.01B,Blanchisserie-teinturerie de détail,"SARL, société à responsabilité limitée",1999-02-01,False,,153 RUE RAYMOND LOSSERAND,,75014,PARIS,48.830947999801836,2.312549000002846,HARMONY PRESSING DISCOUNT,NINIVE,42134842600014,1,1,True,Liquidation judiciaire,MIXTE,A4_reclass
818922304,LAMRANI SAS,LAMRANI SAS,"Teinturerie, bonneterie, nouveautés et lingerie",96.01B,Blanchisserie-teinturerie de détail,"SASU, société par actions simplifiée unipersonnelle",2016-03-04,False,,33 RUE HENRI BARBUSSE,,75005,PARIS,48.84092499980183,2.3387200000027377,LATIN PRESSING,,81892230400014,1,1,False,,AUTRE,A4_reclass
887760155,JONONI,JONONI,"Pressing, nettoyage repassage, retouche.",96.01B,Blanchisserie-teinturerie de détail,"SASU, société par actions simplifiée unipersonnelle",2020-08-01,False,,3 RUE AUGUSTE BARTHOLDI,,75015,PARIS,48.85079099980185,2.2947100000029206,,,88776015500010,1,1,False,,PRESSING,A4_reclass
752900118,D P C,D P C,"Teinturerie, blanchisserie",96.01B,Blanchisserie-teinturerie de détail,"SAS, société par actions simplifiée",2012-07-17,False,,105 B RUE CARDINET,,75017,PARIS 17,0,0,,,75290011800023,0,2,False,,PRESSING,A4_reclass
801711169,ARC EN CIEL,ARC EN CIEL,BLANCHISSERIE TEINTURERIE PRESSING REPASSERIE,96.01B,Blanchisserie-teinturerie de détail,"SARL, société à responsabilité limitée",2014-04-14,False,,268 RUE DE CHARENTON,,75012,PARIS,48.836719999801836,2.391545000002519,,,80171116900012,2,2,False,,PRESSING,A4_reclass
404574048,NEW'CLEAN,NEW'CLEAN,Pressing nettoyage à sec blanchisserie laverie auto - couture,96.01B,Blanchisserie-teinturerie de détail,"SARL, société à responsabilité limitée",1995-09-21,False,,29 BOULEVARD DE STALINGRAD,CTRE COMM. HENRI BARBUSSE,92240,MALAKOFF,48.814038999801845,2.2865170000029513,,NEW'CLEAN,40457404800017,1,1,False,,MIXTE,A4_reclass
952194058,RD5 SASU R.D.5,RD5 SASU R.D.5,PRESSING - BLANCHISSERIE - TEINTURERIE - LAVERIE,96.01B,Blanchisserie-teinturerie de détail,"SASU, société par actions simplifiée unipersonnelle",2023-05-04,False,,92 T AVENUE DE VERDUN,,94200,IVRY-SUR-SEINE,48.80703799980185,2.3747800000025867,PRESSING R.D.5,,95219405800014,2,3,False,,MIXTE,A4_reclass
492523659,LA MARGUERITE D'ALFORTVILLE,LA MARGUERITE D'ALFORTVILLE,"Laverie libre service, repassage, retouche.",96.01B,Blanchisserie-teinturerie de détail,"SARL, société à responsabilité limitée",2006-10-21,False,,16 RUE CHARLES DE GAULLE,,94140,ALFORTVILLE,48.81445299980185,2.413664000002426,,,49252365900018,2,2,False,,LS_PURE_NEW,A4_reclass
853652535,ZBH EURL,ZBH EURL,Pressing- laverie- Multiservices- vente- retouches,96.01B,Blanchisserie-teinturerie de détail,"SARL, société à responsabilité limitée",2019-09-01,False,,111 BOULEVARD SERURIER,RDC,75019,PARIS,48.880624999801825,2.3975160000024967,ZBH,SAB'S WASH & LAUNDRY,85365253500016,1,1,False,,MIXTE,A4_reclass
752490458,TIMILT,TIMILT,"Laverie,  blanchisserie,  pressing , nettoyage de vêtement , retouche , vente de Boutonnerie, Et accessoire de vêtements , confection.",96.01B,Blanchisserie-teinturerie de détail,"SARL, société à responsabilité limitée",2012-06-15,False,,8 AVENUE CHANDON,,92230,GENNEVILLIERS,48.92408799980183,2.295274000002923,,,75249045800011,1,1,False,,MIXTE,A4_reclass
828374280,SPRING XIA,SPRING XIA,"Laverie libre-service, retouches, repassage, service à la personne",96.01B,Blanchisserie-teinturerie de détail,"SARL, société à responsabilité limitée",2017-03-14,False,,2 RUE GEORGE EASTMAN,,75013,PARIS,48.82937099980183,2.3597850000026495,LAVERIE LIBRE SERVICE,,82837428000018,1,1,False,,LS_PURE_NEW,A4_reclass
433681772,SORANA,SORANA,Blanchisserie-teinturerie de détail,96.01B,Blanchisserie-teinturerie de détail,"SARL, société à responsabilité limitée",2000-11-09,False,,104 RUE SADI CARNOT,,92170,VANVES,48.82485999980184,2.2958130000029136,,,43368177200011,0,1,False,,PRESSING,A4_reclass
790247365,CENNET,CENNET,"Pressing, nettoyage à sec, laverie, blanchisserie, teinturerie, routche, achats, ventes, import export de produits non réglementés.",96.01B,Blanchisserie-teinturerie de détail,"EURL, entreprise unipersonnelle à responsabilité limitée",2013-01-02,False,,7 PROMENADE SAINT-LEUFROY,,92150,SURESNES,48.86860399980185,2.225381000003208,,,79024736500014,1,1,False,,MIXTE,A4_reclass
750452781,EVENTS 26,EVENTS 26,Activités des sièges sociaux,96.01B,Blanchisserie-teinturerie de détail,"SARL, société à responsabilité limitée",2012-03-19,False,,34 RUE SAINT-FARGEAU,,75020,PARIS,48.871599999801816,2.4033990000024708,,,75045278100040,0,4,False,,AUTRE,A4_reclass
512821398,SALMA,SALMA,"Nettoyage à sec, blanchisserie, retoucherie, achat, vente et transformation de tous produits vestimentaires",96.01B,Blanchisserie-teinturerie de détail,"SARL, société à responsabilité limitée",2009-05-13,False,,198 RUE LEGENDRE,,75017,PARIS,48.89238099980183,2.32676800000279,,PRESSING GUY MOQUET,51282139800017,0,1,False,,PRESSING,A4_reclass
448486472,ALPAGA,ALPAGA,"TEINTURERIE, BLANCHISSERIE",96.01B,Blanchisserie-teinturerie de détail,"SARL, société à responsabilité limitée",2003-04-15,False,,28 RUE D'ARMAILLE,,75017,PARIS,48.87865899980184,2.2912950000029357,,,44848647200013,1,1,False,,PRESSING,A4_reclass
482706850,SOPRE LAURE,SOPRE LAURE,TEINTURERIE NETTOYAGE A SEC BLANCHISSERIE,96.01B,Blanchisserie-teinturerie de détail,"SARL, société à responsabilité limitée",2005-05-19,False,,138 RUE MONTMARTRE,,75002,PARIS,48.868607999801846,2.343536000002719,,PRESSING DE LA BOURSE,48270685000013,1,1,False,,PRESSING,A4_reclass
519399653,COLPORTEUR BOUTIQUE,COLPORTEUR BOUTIQUE,"Blanchisserie, teinturerie, pressing, nettoyage, et repassage de tout textile ainsi que la commercialisation de tout article se rapportant à ces activités.",96.01B,Blanchisserie-teinturerie de détail,"SAS, société par actions simplifiée",2010-01-12,False,,4 RUE D'ESTIENNE D'ORVES,,92110,CLICHY,48.90565899980184,2.302303000002892,,,51939965300061,6,7,False,,PRESSING,A4_reclass
343569125,BRIGHT,BRIGHT,"Le commerce de nettoyage vêtements, peaux, fourrures, ameublement, tapis, rideaux, blanchisserie, teinturerie. Achat, vente de tous produits manufactures en textiles y compris pièces détachées, auto. Produits alimentaires. Produits industriels et leurs dérives, Import-Export.",96.01B,Blanchisserie-teinturerie de détail,"EURL, entreprise unipersonnelle à responsabilité limitée",1988-01-22,False,,35 RUE DU COLISEE,,75008,PARIS,48.87155199980183,2.310377000002857,,,34356912500028,1,2,False,,PRESSING,A4_reclass
852299148,CLEMMA,CLEMMA,Pressing.,96.01B,Blanchisserie-teinturerie de détail,"EURL, entreprise unipersonnelle à responsabilité limitée",2019-06-17,False,,295 BOULEVARD RASPAIL,,75014,PARIS,48.83517999980186,2.332423000002763,,,85229914800019,1,1,False,,PRESSING,A4_reclass
411496631,PRESTO SERVICE,PRESTO SERVICE,"LA CREATION, L'ACHAT ET L'EXPLOITATION, DE TOUS FONDS DE COMMER CE DE TEINTURERIE, PRESSING AUTOMATIQUE OU NON",96.01B,Blanchisserie-teinturerie de détail,"SARL, société à responsabilité limitée",1997-03-24,False,,12 RUE DE L'ARCADE,,75008,PARIS,48.871493999801835,2.3236380000028007,PRESTO SERVICE,PRESTO SERVICE,41149663100044,1,4,False,,PRESSING,A4_reclass
901718148,LAVOMATTIC,LAVOMATTIC,laverie automatique,96.01B,Blanchisserie-teinturerie de détail,"SASU, société par actions simplifiée unipersonnelle",2021-06-11,False,,12 RUE DE LA STATION,MEUDON LA FORET,92360,MEUDON,48.78654399980186,2.227082000003197,,,90171814800017,1,1,False,,LS_PURE_NEW,A4_reclass
803129246,SILVA,SILVA,Pressing nettoyage a sec de vetements ou par machine a laver depot de linge repassage,96.01B,Blanchisserie-teinturerie de détail,"SARL, société à responsabilité limitée",2014-06-26,False,,54 RUE D'EREVAN,CENTRE COMMERCIAL LES EPINETTES,92130,ISSY-LES-MOULINEAUX,48.817529999801835,2.2606350000030595,PRESSING PLUS,,80312924600010,2,2,False,,PRESSING,A4_reclass
753854249,VOTRE VOISIN,VOTRE VOISIN,"Pressing, teinturerie.",96.01B,Blanchisserie-teinturerie de détail,"SARL, société à responsabilité limitée",2012-09-13,False,,21 RUE MARX DORMOY,,75018,PARIS,48.88596299980184,2.3592700000026543,,,75385424900012,0,1,False,,PRESSING,A4_reclass
504807124,HAS,HAS,"Teinturerie, nettoyage, pressing, stopage, remaillage, location de matériel, nettoyage.",96.01B,Blanchisserie-teinturerie de détail,"SARL, société à responsabilité limitée",2008-06-01,False,,55 RUE DE BEZONS,,92400,COURBEVOIE,48.89639299980186,2.248501000003115,MILO PRESSING,,50480712400012,1,1,False,,PRESSING,A4_reclass
881351779,AC AQUA CLEAN,AC AQUA CLEAN,"Teinturerie, pressing, blanchisserie, laverie, retouche, ventes savons écologiques et matériels de pressing, reprographie.",96.01B,Blanchisserie-teinturerie de détail,"EURL, entreprise unipersonnelle à responsabilité limitée",2020-02-01,False,,72 RUE CLAUDE BERNARD,,75005,PARIS,48.84046599980184,2.3458670000027086,WET CLEAN,EURL AQUA CLEAN,88135177900015,0,3,False,,MIXTE,A4_reclass
801528225,QUATORZE40,QUATORZE40,Blanchisserie-teinturerie de détail,96.01B,Blanchisserie-teinturerie de détail,"SAS, société par actions simplifiée",2014-04-07,False,,142 AVENUE DE VERSAILLES,,75016,PARIS,48.841685999801854,2.266528000003037,LEALY PRESSING,,80152822500056,4,5,False,,PRESSING,A4_reclass
830390019,ENSEL,ENSEL,"Exploitation de toutes activités de tous commerces de pressing, teinturerie, retoucherie, cordonnerie et ventes de petits textiles divers",96.01B,Blanchisserie-teinturerie de détail,"SARL, société à responsabilité limitée",2017-06-20,False,,16 RUE GAMBETTA,,92600,ASNIERES-SUR-SEINE,48.91010699980182,2.292514000002933,PRESSING GAMBETTA,,83039001900016,1,1,False,,PRESSING,A4_reclass
533164844,N & A,N & A,"Pressing, teinturerie, nettoyage à sec, rapassage, retouches.",96.01B,Blanchisserie-teinturerie de détail,"SARL, société à responsabilité limitée",2011-06-22,False,,152 RUE DE LA CONVENTION,,75015,PARIS,48.83911799980185,2.2920040000029305,,,53316484400011,1,1,False,,PRESSING,A4_reclass
538678871,SARL NATHAN,SARL NATHAN,"Pressing, blanchisserie, repassage.",96.01B,Blanchisserie-teinturerie de détail,"SARL, société à responsabilité limitée",2011-12-13,False,,40 RUE PERGOLESE,,75016,PARIS,48.87431799980183,2.2826030000029722,,,53867887100012,1,1,False,,PRESSING,A4_reclass
809129620,W&P,W&P,Teinturerie nettoyage et apprêts de tous vêtements stoppage remaillage repassage pressing et faux-cols laverie (y compris Lavomatique en libre service) retouche,96.01B,Blanchisserie-teinturerie de détail,"SARL, société à responsabilité limitée",2015-01-07,False,,8 RUE MAUBLANC,,75015,PARIS,48.840030999801854,2.2997230000028996,LA TEINTURERIE MAUBLANC,LA TEINTURERIE MAUBLANC,80912962000013,1,1,False,,MIXTE,A4_reclass
834043069,SPONTINI SERVICES,SPONTINI SERVICES,"Pressing, prestation de services aux entreprises et aux particuliers et sous-traitance en tous genres liés à la retoucherie et aux pressings. Négoce de Prêt-à-porter et de produits en tous genres non réglementés. Vente à emporter d'alcool.",96.01B,Blanchisserie-teinturerie de détail,"SASU, société par actions simplifiée unipersonnelle",2017-11-14,False,,98 BOULEVARD DU MONTPARNASSE,,75014,PARIS,48.84243999980186,2.327646000002784,,,83404306900022,2,3,False,Liquidation judiciaire,PRESSING,A4_reclass
532222262,DDH,DDH,"Pressing, laverie, import-export de tous produits non règlementés, vente à distance tous produits non règlementés par internet.",96.01B,Blanchisserie-teinturerie de détail,"SARL, société à responsabilité limitée",2011-05-10,False,,31 RUE GUERSANT,,75017,PARIS,48.881571999801835,2.289034000002946,TIP PRESSING,DDH,53222226200026,1,2,False,,MIXTE,A4_reclass
572203628,SAPAM APPLICATION PROCEDE AUTOMATIQ,SAPAM APPLICATION PROCEDE AUTOMATIQ,BLANCHISSERIE NETTOYAGE REPASSAGE,96.01B,Blanchisserie-teinturerie de détail,"SARL, société à responsabilité limitée",1957-01-01,False,,39 BOULEVARD HENRI IV,,75004,PARIS,48.852516999801864,2.366474000002623,PRESSING HENRI VI,PRESSING HENI IV,57220362800027,1,1,False,,PRESSING,A4_reclass
479203820,SOCIETE ANNA,SOCIETE ANNA,PRESSING BLANCHISSERIE TEINTURERIE RETOUCHES,96.01B,Blanchisserie-teinturerie de détail,"SARL, société à responsabilité limitée",2004-10-01,False,,216 RUE DU CHATEAU DES RENTIERS,,75013,PARIS,48.83173499980182,2.3604700000026466,,,47920382000010,3,3,False,,PRESSING,A4_reclass
824268841,THOLEA,THOLEA,"Laverie, dépôt de blanchisserie et de pressing.",96.01B,Blanchisserie-teinturerie de détail,"SAS, société par actions simplifiée",2016-12-12,False,,36 RUE ERNEST RENAN,,92130,ISSY-LES-MOULINEAUX,48.82811399980186,2.281078000002976,ISSY PRESSING,ISYY PRESSING,82426884100015,1,1,False,,MIXTE,A4_reclass
404167439,MONISOK,MONISOK,"LAVERIE AUTOMATIQUE, LIBRE SERVICE",96.01B,Blanchisserie-teinturerie de détail,"SASU, société par actions simplifiée unipersonnelle",1996-01-02,False,,2 RUE DU SOLEIL,,75020,PARIS,48.875139999801824,2.39401000000251,,,40416743900029,1,2,False,,LS_PURE_NEW,A4_reclass
424005866,MAKHA,MAKHA,"Pressing, Retoucherie",96.01B,Blanchisserie-teinturerie de détail,"SARL, société à responsabilité limitée",1999-08-01,False,,CENTRE COMMERCIAL CHARRAS,CHARRAS,92400,COURBEVOIE,0,0,,,42400586600019,1,1,False,,PRESSING,A4_reclass
572031417,DETACHENET,DETACHENET,Teinturerie dégraissage avec spécialité de nettoyage des tissus d'ameublement a domicile et a l'atelier,96.01B,Blanchisserie-teinturerie de détail,"SARL, société à responsabilité limitée",1957-01-01,False,,26 RUE FREYCINET,,75016,PARIS,48.86697399980185,2.2959510000029155,,,57203141700023,1,1,False,,PRESSING,A4_reclass
533524641,LE MIMOSA,LE MIMOSA,"Pressing, teinturerie, nettoyage à sec.",96.01B,Blanchisserie-teinturerie de détail,"SARL, société à responsabilité limitée",2011-07-12,False,,206 RUE ADOLPHE PAJEAUD,,92160,ANTONY,48.74075899980186,2.2815720000029684,PRESSING DE LA BIEVRE,,53352464100016,1,1,False,,PRESSING,A4_reclass
539575258,BLANCHINET,BLANCHINET,Laverie automatique repassage et dépot de teinturerie.,96.01B,Blanchisserie-teinturerie de détail,"SARL, société à responsabilité limitée",2012-01-01,False,,16 RUE JEAN NICOT,,93500,PANTIN,48.891465999801845,2.416151000002419,,,53957525800014,1,2,False,,LS_PURE_NEW,A4_reclass
498053560,KEN,KEN,"Pressing, blanchisserie, retouche, nettoyage de tous textiles et sous toutes ses formes.",96.01B,Blanchisserie-teinturerie de détail,"SARL, société à responsabilité limitée",2007-05-03,False,,1 PLACE DE BRUHL,,92330,SCEAUX,48.77851399980184,2.2933630000029215,,,49805356000021,1,2,False,,PRESSING,A4_reclass
751154196,N.V.P,N.V.P,"Pressing, nettoyage de vêtements, laverie, retoucherie.",96.01B,Blanchisserie-teinturerie de détail,"SARL, société à responsabilité limitée",2012-04-03,False,,13 RUE DE PICPUS,,75012,PARIS,48.846854999801835,2.394055000002508,,,75115419600016,1,1,False,,MIXTE,A4_reclass
798937512,L'O CLAIRE,L'O CLAIRE,Pressing,96.01B,Blanchisserie-teinturerie de détail,"SARL, société à responsabilité limitée",2013-12-04,False,,664 AVENUE ROGER SALENGRO,,92370,CHAVILLE,48.81528499980184,2.1933750000033383,,PRESSING L'O CLAIRE,79893751200027,1,2,False,Liquidation judiciaire,PRESSING,A4_reclass
352256374,CTI FLASH LIGHT,CTI FLASH LIGHT,"Blanchisserie, teinturerie, pressing",96.01B,Blanchisserie-teinturerie de détail,"SARL, société à responsabilité limitée",1989-11-01,False,,17 RUE GEORGES BIZET,,75016,PARIS,48.86728696716438,2.2977330028869702,,TEINTURERIE DU MAINE,35225637400088,1,7,False,,PRESSING,A4_reclass
450222450,AJBM ALAZARD,AJBM ALAZARD,"Laverie, pressing automatique",96.01B,Blanchisserie-teinturerie de détail,"SAS, société par actions simplifiée",2003-09-01,False,,40 RUE NOTRE-DAME DE LORETTE,,75009,PARIS,48.87922999980184,2.3366830000027474,PRESSING NETOMATIQUE,,45022245000048,1,4,False,,MIXTE,A4_reclass
403674666,K 2 M,K 2 M,LAVERIE,96.01B,Blanchisserie-teinturerie de détail,"SARL, société à responsabilité limitée",1996-02-01,False,,116 RUE ORFILA,,75020,PARIS,48.86814499980182,2.4007210000024832,,,40367466600017,1,1,False,,LS_PURE_NEW,A4_reclass
793855388,BLACK WHITE,BLACK WHITE,"Teinturerie, pressing, laverie.",96.01B,Blanchisserie-teinturerie de détail,"SARL, société à responsabilité limitée",2013-06-17,False,,72 RUE DE DUNKERQUE,,75009,PARIS,48.88227199980183,2.346088000002709,BLACK WHITE,BLACK WHITE,79385538800013,1,1,False,,MIXTE,A4_reclass
481069672,AYER,AYER,"PRESSING, BLANCHISSERIE, TEINTURERIE, RETOUCHERIE",96.01B,Blanchisserie-teinturerie de détail,"SARL, société à responsabilité limitée",2005-03-01,False,,54 AVENUE DU DOCTEUR ARNOLD NETTER,,75012,PARIS,48.84499799980185,2.40595500000246,,,48106967200014,1,1,False,,PRESSING,A4_reclass
384683256,SARL BICHAT,SARL BICHAT,TEINTURERIE BLANCHISSERIE PRESSING ET NEGOCE DE LA LINGERIE,96.01B,Blanchisserie-teinturerie de détail,"SARL, société à responsabilité limitée",1992-03-20,False,,41 RUE BICHAT,,75010,PARIS,48.87219099980184,2.3670360000026234,,BLANCHISSERIE BICHAT,38468325600026,1,2,False,,PRESSING,A4_reclass
497727255,LYSMUS,LYSMUS,"Teinturerie, blanchisserie, pressing",96.01B,Blanchisserie-teinturerie de détail,"SARL, société à responsabilité limitée",2007-04-16,False,,68 BOULEVARD ORNANO,,75018,PARIS,48.89636599980183,2.3459400000027113,,,49772725500018,1,1,False,,PRESSING,A4_reclass
523608271,SARL NATALIA,SARL NATALIA,"Pressing, blanchisserie, retouches, vêtements, dépôt relais colis.",96.01B,Blanchisserie-teinturerie de détail,"SARL, société à responsabilité limitée",2010-07-02,False,,24 AVENUE MATHURIN MOREAU,,75019,PARIS,48.87823299980184,2.373552000002595,,,52360827100012,1,1,False,,PRESSING,A4_reclass
417896404,PB INVEST,PB INVEST,Pressing blanchisserie,96.01B,Blanchisserie-teinturerie de détail,"SARL, société à responsabilité limitée",1998-03-01,False,,96 RUE SAINT-CHARLES,,75015,PARIS,48.845822999801854,2.284660000002962,,,41789640400171,8,17,True,Redressement judiciaire,PRESSING,A4_reclass
329416234,MULTISER LAFENESTRE,MULTISER LAFENESTRE,"LAVERIE, LIBRE SERVICE, PRESSING",96.01B,Blanchisserie-teinturerie de détail,"SAS, société par actions simplifiée",1984-03-19,False,,3 RUE DU DOCTEUR GOUJON,,75012,PARIS,48.83989199980183,2.397709000002494,LAV' CLUB,,32941623400022,1,2,False,,MIXTE,A4_reclass
815347307,GW2,GW2,Pressing et conciergerie.,96.01B,Blanchisserie-teinturerie de détail,"SASU, société par actions simplifiée unipersonnelle",2016-01-01,False,,137 RUE HOUDAN,,92330,SCEAUX,48.77893999980184,2.2827930000029664,AQUALOGIA,,81534730700028,1,2,True,Redressement judiciaire,PRESSING,A4_reclass
404860900,S M N,S M N,"PRESSING TEINTURERIE CONCERNANT TOUS VETEMENTS TAPIS, TOUTES PRESTATIONS DE SERVICES LIEES A CETTE ACTIVITE",96.01B,Blanchisserie-teinturerie de détail,"SARL, société à responsabilité limitée",1996-03-06,False,,30 RUE GREUZE,,75016,PARIS,48.86439399980182,2.2826430000029716,PRESSING DES SABLONS,PRESSING DES SABLONS,40486090000012,1,1,True,Liquidation judiciaire,PRESSING,A4_reclass
534290952,SALIBA,SALIBA,"Pressing, blanchisserie",96.01B,Blanchisserie-teinturerie de détail,"SARL, société à responsabilité limitée",2011-08-23,False,,108 AVENUE LEDRU-ROLLIN,,75011,PARIS,48.85255599980184,2.377043000002579,HARMONY,,53429095200017,1,1,False,,PRESSING,A4_reclass
819289539,AC CLEAN,AC CLEAN,"Pressing, nettoyage de tous textiles et sous toutes ses formes, laverie rapide, repassage, retouches des vêtements.",96.01B,Blanchisserie-teinturerie de détail,"SAS, société par actions simplifiée",2016-03-15,False,,90 B RUE DE MONTREUIL,,75011,PARIS,48.85066399980184,2.394978000002506,O'PRESSING,,81928953900010,1,1,False,,MIXTE,A4_reclass
532491602,OZVERI,OZVERI,"Pressing, retouche et accessoires s'y rapportant",96.01B,Blanchisserie-teinturerie de détail,"SARL, société à responsabilité limitée",2011-05-16,False,,12 B RUE DE L'ETOILE,,75017,PARIS,48.87717999980184,2.295707000002918,,,53249160200027,1,2,False,,PRESSING,A4_reclass
503246738,SUPERCLEAN,SUPERCLEAN,Blanchisserie-teinturerie de détail,96.01B,Blanchisserie-teinturerie de détail,"SARL, société à responsabilité limitée",2008-02-28,False,,204 RUE DE BELLEVILLE,N°204 AU 206,75020,PARIS,48.875155999801834,2.3949190000025062,CLEAN DISCOUNT PRESSING,CLEAN DISCOUNT PRESSING,50324673800028,1,2,False,,PRESSING,A4_reclass
572150159,SOCIETE AMSEC,SOCIETE AMSEC,Exploitation de toutes entreprises de blanchisseries Teinturerienettoyage et pressing ainsi que toutes opérations s'y rattachant,96.01B,Blanchisserie-teinturerie de détail,"SARL, société à responsabilité limitée",1957-01-01,False,,36 RUE DE RIVOLI,,75004,PARIS,48.85634199980184,2.3568450000026635,,,57215015900018,1,1,False,,PRESSING,A4_reclass
439946039,SARL AVYAS,SARL AVYAS,"Dépôt de laverie, teinturerie, achat-vente de lingerie drap rideau chaussures et bazar en ambulant",96.01B,Blanchisserie-teinturerie de détail,"SARL, société à responsabilité limitée",2001-11-15,False,,69 RUE JEAN LONGUET,,92290,CHATENAY-MALABRY,48.76712999980186,2.280168000002976,LAV'PRESS,LAV'PRESS,43994603900013,2,2,False,,LS_PURE_NEW,A4_reclass
520691825,PERSHING SERVICES,PERSHING SERVICES,Teinturerie blanchisserie pressing nettoyage à sec,96.01B,Blanchisserie-teinturerie de détail,"SARL, société à responsabilité limitée",2010-03-02,False,,1 BOULEVARD PERSHING,,75017,PARIS,48.88153999980184,2.285362000002962,,,52069182500027,1,2,False,,PRESSING,A4_reclass
830797189,CLEAN CORNER,CLEAN CORNER,"Teinturerie, blanchisserie, laverie, retoucherie, vente.",96.01B,Blanchisserie-teinturerie de détail,"SAS, société par actions simplifiée",2017-07-05,False,,16 RUE MANDAR,,75002,PARIS,48.86580499980185,2.3450580000027124,,,83079718900016,1,1,False,,MIXTE,A4_reclass
321776585,DICKY,DICKY,"Laverie libre service, commissionnaire de prêt à porter, achat, vente de prêt à porter. La réalisation de toutes opérations industrielles, commerciales et financières mobilières ou immobilières pouvant se rattacher directement ou indirectement à l'objet social.",96.01B,Blanchisserie-teinturerie de détail,"SARL, société à responsabilité limitée",1981-05-12,False,,12 RUE POISSONNIERE,,75002,PARIS,48.86900899980183,2.3478320000027004,PARADISE,,32177658500051,1,2,False,,LS_PURE_NEW,A4_reclass
348959552,IMOBEL,IMOBEL,"TRAVAUX DE NETTOYAGE A SEC, PRESSING AUTOMATIQUE, TEINTURERIE, BLANCHISSERIE, REPASSAGE VETEMENTS EN TEXTILE, CUIR, PEAUX ET TISSUS",96.01B,Blanchisserie-teinturerie de détail,"SARL, société à responsabilité limitée",1988-12-14,False,,100 RUE DE TURENNE,,75003,PARIS,48.86247199980183,2.364748000002631,BLANCHE MONTAGNE,BLANCHE MONTAGNE,34895955200046,1,3,False,,PRESSING,A4_reclass
812177053,SOCIETE MEILIN,SOCIETE MEILIN,"Blanchisserie automatique, teinturerie au détail, pressing.",96.01B,Blanchisserie-teinturerie de détail,"SARL, société à responsabilité limitée",2015-07-01,False,,22 RUE VILLENEUVE,,92110,CLICHY,48.90401999980185,2.3071250000028716,PRESSING-LAVERIE,,81217705300012,1,1,False,,PRESSING,A4_reclass
810503789,HAIDER ET PETIT FILS,HAIDER ET PETIT FILS,"Centre de nettoyage et de lavage de tous vetements textiles, ameublements et assimilés, tapis, vetements cuirs et peaux, toutes activités annexes",96.01B,Blanchisserie-teinturerie de détail,"SARL, société à responsabilité limitée",2015-03-16,False,,2 ALLEE PERRONET,,92320,CHATILLON,48.80793099980184,2.296322000002912,MINI CLEAN PRESSING II,MINI CLEAN PRESSING II,81050378900010,1,1,False,,PRESSING,A4_reclass
510445448,NORAYOUSSEF,NORAYOUSSEF,"Teinturerie, pressing, blanchisserie, retouches, et à titre accessoire : la vente de collant et connexes.",96.01B,Blanchisserie-teinturerie de détail,"SARL, société à responsabilité limitée",2009-02-10,False,,77 AVENUE JEAN JAURES,,92120,MONTROUGE,48.81583099980183,2.3109060000028516,NET PRESSING,NORAYOUSSEF,51044544800036,1,3,False,,PRESSING,A4_reclass
308396100,POUYANNE LE MEDECIN DE LA ROBE,POUYANNE LE MEDECIN DE LA ROBE,"La teinturerie, le nettoyage, la blanchisserie, le stoppage, le remaillage et la rénovation de vêtements. La création, l'exploitation, la reprise et la prise en gérance de toute entreprise de textile",96.01B,Blanchisserie-teinturerie de détail,"SASU, société par actions simplifiée unipersonnelle",1976-01-01,False,,18 QUAI CARNOT,18-19,92210,SAINT CLOUD,0,0,,,30839610000064,3,6,True,Liquidation judiciaire,PRESSING,A4_reclass
887716553,ABDEYOU,ABDEYOU,Laverie automatique,96.01B,Blanchisserie-teinturerie de détail,"SARL, société à responsabilité limitée",2020-06-04,False,,5 RUE FREDERIC LOLIEE,,75020,PARIS,48.849544999801836,2.406090000002459,,,88771655300011,1,1,False,,LS_PURE_NEW,A4_reclass
452394661,LA MAIN D OR,LA MAIN D OR,DEPOT DE PRESSING,96.01B,Blanchisserie-teinturerie de détail,"SARL, société à responsabilité limitée",2004-01-22,False,,11 RUE DE LISBONNE,,75008,PARIS,48.87768199980185,2.3157990000028343,,,45239466100014,1,1,False,,PRESSING,A4_reclass
438659070,CHRONO CLEAN,CHRONO CLEAN,LAVERIE BLANCHISSERIE PRESSING,96.01B,Blanchisserie-teinturerie de détail,"SARL, société à responsabilité limitée",2001-07-24,False,,11 RUE DU BOUQUET DE LONGCHAMP,,75016,PARIS,48.86568599980185,2.290541000002939,,,43865907000017,2,10,False,,MIXTE,A4_reclass
495381550,BARBES-SEC,BARBES-SEC,"Blanchisserie, laverie, pressing en libre service.",96.01B,Blanchisserie-teinturerie de détail,"SARL, société à responsabilité limitée",2007-05-05,False,,53 RUE DE LA GOUTTE D'OR,,75018,PARIS,48.88500499980182,2.3513200000026875,,,49538155000013,1,1,False,,MIXTE,A4_reclass
878922863,JEPARIS,JEPARIS,PRESSING ECOLOGIQUE RETOUCHERIE COUTURE,96.01B,Blanchisserie-teinturerie de détail,"SAS, société par actions simplifiée",2019-11-14,False,,BOULEVARD FRANCOIS-VINCENT RASPAIL,CENTRE COMMERCIAL NANTERRE BALZAC,92000,NANTERRE,48.89726499980185,2.2063930000032896,,JEPARIS,87892286300013,0,1,False,,PRESSING,A4_reclass
300985397,SOLAPRES,SOLAPRES,"TOUTE ACTIVITE DE LAVERIE, PRESSING, NETTOYAGE, TEINTURIE",96.01B,Blanchisserie-teinturerie de détail,"SARL, société à responsabilité limitée",1964-01-01,False,,2 RUE GIRODET,,75016,PARIS,48.84831999980183,2.264112000003046,,,30098539700011,1,2,False,,MIXTE,A4_reclass
513270108,HARMONY,HARMONY,"Teinturerie, pressing, blanchisserie, laverie",96.01B,Blanchisserie-teinturerie de détail,"SARL, société à responsabilité limitée",2009-05-15,False,,47 RUE DE VOUILLE,,75015,PARIS,48.83395399980184,2.308464000002863,HARMONY,HARMONY,51327010800014,1,1,False,,MIXTE,A4_reclass
879650588,DELTA SERVICES,DELTA SERVICES,"Nettoyage, blanchisserie.",96.01B,Blanchisserie-teinturerie de détail,"EURL, entreprise unipersonnelle à responsabilité limitée",2019-11-25,False,,8 RUE DE LA POINTE,,93130,NOISY-LE-SEC,48.89365899612848,2.4392529530570912,,,87965058800053,1,4,True,Liquidation judiciaire,PRESSING,A4_reclass
483659298,SARL MAYA,SARL MAYA,"PRESSING, TEINTURERIE, LAVERIE AUTOMATIQUE ET RETOUCHERIE",96.01B,Blanchisserie-teinturerie de détail,"SARL, société à responsabilité limitée",2005-09-01,False,,113 RUE DU CHEMIN VERT,,75011,PARIS,48.861498999801825,2.382140000002558,,,48365929800010,0,1,False,,MIXTE,A4_reclass
502831555,YLEAN,YLEAN,"Blanchisserie, teinturerie de détail.",96.01B,Blanchisserie-teinturerie de détail,"SARL, société à responsabilité limitée",2008-02-20,False,,58 AVENUE PIERRE LAROUSSE,,92240,MALAKOFF,48.82154699980184,2.3042430000028795,STOP PRESSING,,50283155500011,0,1,False,,PRESSING,A4_reclass
411442353,FIRST CLEAN INTERNATIONAL,FIRST CLEAN INTERNATIONAL,BLANCHISSERIE TEINTURERIE RAMASSAGE LIVRAISON STOPPAGE REMAILLAGE REPARATION RETOUCHES DE VETEMENTS,96.01B,Blanchisserie-teinturerie de détail,"SARL, société à responsabilité limitée",1997-04-18,False,,13 RUE THEOPHILE GAUTIER,,92120,MONTROUGE,48.818475999801834,2.324198000002796,FIRST CLEAN,FIRST CLEAN,41144235300016,0,1,False,,PRESSING,A4_reclass
351232491,ADYM,ADYM,"ACQUISITION, EXPLOITATION DE TOUS FONDS DE COMMERCE OU D'INDUSTRIES DE TEINTURERIE BLANCHISSERIE, ENTRETIEN DE TOUS VETEMENTS, TEXTILES, REVETEMENTS, AINSI QUE LE COMMERCE DES ACCESSOIRES DE NETTOYAGE ET D'HABILLEMENT.",96.01B,Blanchisserie-teinturerie de détail,"SAS, société par actions simplifiée",1989-03-30,False,,9 RUE DU CHAMP DE MARS,,75007,PARIS,48.85640795612085,2.305964965480473,,LA TEINTURERIE,35123249100024,1,2,False,,PRESSING,A4_reclass
444196968,AP SERVICE,AP SERVICE,Blanchisserie-teinturerie de détail,96.01B,Blanchisserie-teinturerie de détail,"SARL, société à responsabilité limitée",2002-10-21,False,,83 RUE PELLEPORT,83-85,75020,PARIS,48.869226999801846,2.400371000002483,PRESS 120,AP SERVICE,44419696800051,1,5,False,,PRESSING,A4_reclass
502322373,FEDHINET,FEDHINET,"Teinturerie, blanchisserie, pressing, nettoyage à domicile",96.01B,Blanchisserie-teinturerie de détail,"SARL, société à responsabilité limitée",2008-01-08,False,,51 RUE AUGUSTE BLANQUI,,94600,CHOISY-LE-ROI,48.76527599980183,2.4059890000024557,,,50232237300015,2,2,False,,PRESSING,A4_reclass
794718569,EPICES ET A,EPICES ET A,Laverie automatique et location de casiers à ski.,96.01B,Blanchisserie-teinturerie de détail,"SAS, société par actions simplifiée",2013-09-08,False,,RES LES ARANDELIERES,LES ARCS 1800 PL BASSE VILLARDS,73700,BOURG-SAINT-MAURICE,0,0,,,79471856900021,3,4,False,,LS_PURE_NEW,A4_reclass
837535012,LATOUR 66,LATOUR 66,Dépôt pressing; prestation de services aux entreprises et aux particuliers et sous Traitance en tous genres liés à la Retoucherie et au pressing; négoce de prêt à porter et de produits en tous genres non réglementés.,96.01B,Blanchisserie-teinturerie de détail,"SASU, société par actions simplifiée unipersonnelle",2017-11-24,False,,66 RUE DE LA TOUR,,75016,PARIS,48.86052599980182,2.28065200000298,,,83753501200012,1,1,False,,PRESSING,A4_reclass
800808578,VLG NET,VLG NET,Pressing,96.01B,Blanchisserie-teinturerie de détail,"SARL, société à responsabilité limitée",2014-04-01,False,,20 RUE DE LA BONGARDE,CENTRE COMMERCIAL QWARTZ,92390,VILLENEUVE-LA-GARENNE,48.924671999801845,2.3273390000027887,,,80080857800010,1,1,False,,PRESSING,A4_reclass
793617614,BOULLE,BOULLE,"Prêt-à-porter, dépôt, pressing, retouches.",96.01B,Blanchisserie-teinturerie de détail,"SARL, société à responsabilité limitée",2013-05-13,False,,13 RUE BOULLE,,75011,PARIS,48.85685899980182,2.3728670000025964,,,79361761400011,2,2,False,,PRESSING,A4_reclass
750582876,AMETIS,AMETIS,"Pressing, blanchisserie.",96.01B,Blanchisserie-teinturerie de détail,"SARL, société à responsabilité limitée",2012-01-20,False,,30 BOULEVARD BEAUMARCHAIS,,75011,PARIS,48.85610299980184,2.3686910000026153,,,75058287600017,1,1,False,Liquidation judiciaire,PRESSING,A4_reclass
397786047,LAGOA,LAGOA,LAVERIE PRESSING TEINTURERIE LIBRE SERVICE,96.01B,Blanchisserie-teinturerie de détail,"SARL, société à responsabilité limitée",1994-06-27,False,,25 RUE GRAMME,,75015,PARIS,48.84475899980184,2.2967980000029113,,LAGOA,39778604700019,2,2,False,,MIXTE,A4_reclass
512246042,NAKAR PROPRETE,NAKAR PROPRETE,"Pressing, teinturerie",96.01B,Blanchisserie-teinturerie de détail,"EURL, entreprise unipersonnelle à responsabilité limitée",2009-04-24,False,,123 RUE LAMARCK,,75018,PARIS,48.890964999801824,2.330514000002775,,,51224604200026,1,2,False,,PRESSING,A4_reclass
389219916,LA PAIX DISTRIBUTION,LA PAIX DISTRIBUTION,"EXPLOITATION, VENTE, ACHAT, LOCATION-GERANCE DE TOUTES ACTIVITESLIEES A LA DISTRIBUTION DE TOUS PRODUITS ALIMENTAIRES OU NON, ACTIVITE DE LAVERIE-PRESSING",96.01B,Blanchisserie-teinturerie de détail,"SARL, société à responsabilité limitée",1992-10-26,False,,261 RUE DES PYRENEES,,75020,PARIS,48.86693499980184,2.396721000002498,,,38921991600035,1,3,False,,MIXTE,A4_reclass
840494348,HUAN BI,HUAN BI,"Pressing, retoucherie et accessoires s'y rapportant",96.01B,Blanchisserie-teinturerie de détail,"SARL, société à responsabilité limitée",2018-06-18,False,,13 RUE DE CASTELLANE,,75008,PARIS,48.87233699980183,2.3247310000027976,,HUAN MEI,84049434800013,1,1,False,,PRESSING,A4_reclass
511233017,A.N.T,A.N.T,Blanchisserie-teinturerie de détail,96.01B,Blanchisserie-teinturerie de détail,"SARL, société à responsabilité limitée",2009-03-12,False,,62 CHAUSSEE JULES CESAR,,95310,SAINT-OUEN-L'AUMONE,49.03650699980182,2.1145920000036793,,,51123301700058,4,5,False,,PRESSING,A4_reclass
444227771,SARL SARAY,SARL SARAY,"Blanchisserie, laverie, nettoyage a sec, pressing teinturerie, retouche de tous vêtements et textiles tissus",96.01B,Blanchisserie-teinturerie de détail,"SARL, société à responsabilité limitée",2002-12-02,False,,51 RUE OBERKAMPF,,75011,PARIS,48.864640999801836,2.372135000002601,WECLEAN,CLEAN CITY,44422777100011,0,1,False,,MIXTE,A4_reclass
319762662,SARL SELSA SERVICE,SARL SELSA SERVICE,"Dépôt de pressing sans machines, retouches",96.01B,Blanchisserie-teinturerie de détail,"SARL, société à responsabilité limitée",1980-08-05,False,,5 RUE MOUTON-DUVERNET,,75014,PARIS,48.83148299980184,2.329222000002777,,,31976266200082,2,8,False,,PRESSING,A4_reclass
444699284,S.A.R.L. AURELIE,S.A.R.L. AURELIE,Laverie automatique dépot de linges.,96.01B,Blanchisserie-teinturerie de détail,"SARL, société à responsabilité limitée",2003-01-31,False,,1 AVENUE DU GENERAL GALLIENI,Bâtiment A,92000,NANTERRE,48.89621499980182,2.1968740000033296,,S.A.R.L. AURELIE,44469928400014,0,1,False,,LS_PURE_NEW,A4_reclass
552138190,AUTOLAVLINGE,AUTOLAVLINGE,EXPLOITATION DE TOUS COMMERCES ET INDUSTRIES ET SPECIALEMENT DE TEINTURERIES ET BLANCHISSERIES AUTOMATIQUES,96.01B,Blanchisserie-teinturerie de détail,"SAS, société par actions simplifiée",1900-01-01,False,,19 RUE D'AUTEUIL,,75016,PARIS,48.847410999801845,2.2670080000030346,,,55213819000038,1,3,False,,PRESSING,A4_reclass
309446904,PIBERGIL,PIBERGIL,"TEINTURERIE, PRESSING, LAVERIE, BLANCHISSERIE EN LIBRE SERVICE DEPOT OU TRADITIONNEL AINSI QUE TOUS OBJETS CONNEXES",96.01B,Blanchisserie-teinturerie de détail,"SARL, société à responsabilité limitée",1977-01-01,False,,70 BOULEVARD AUGUSTE BLANQUI,,75013,PARIS,48.83031799980184,2.347746000002699,,,30944690400018,1,1,False,,MIXTE,A4_reclass
834160269,MA,MA,Laverie automatique,96.01B,Blanchisserie-teinturerie de détail,"SASU, société par actions simplifiée unipersonnelle",2017-12-15,False,,37 BOULEVARD DE BRANDEBOURG,,94200,IVRY-SUR-SEINE,48.814470999801856,2.396657000002496,,,83416026900017,3,4,False,,LS_PURE_NEW,A4_reclass
519850085,SAMET,SAMET,"Pressing, nettoyage à sec ou lavage écologique, repassage, détachage, livraison à domicile et ce destinés tant aux particuliers qu'aux professionnels.",96.01B,Blanchisserie-teinturerie de détail,"SARL, société à responsabilité limitée",2010-01-08,False,,23 RUE CARNOT,,92300,LEVALLOIS-PERRET,48.88981399980186,2.2883760000029483,,,51985008500019,0,2,False,,PRESSING,A4_reclass
435405600,F.M,F.M,Blanchisserie-teinturerie de détail,96.01B,Blanchisserie-teinturerie de détail,"SARL, société à responsabilité limitée",2001-04-02,False,,45 RUE CLISSON,,75013,PARIS,48.83155799980186,2.366784000002622,MODESTE PRESSING,MODESTE PRESSING,43540560000014,0,1,False,,PRESSING,A4_reclass
808646772,S.N.R. PRO,S.N.R. PRO,"Teinturerie, blanchisserie, pressing, réparation et entretien de vêtements ainsi que toutes activités s'y rapportant et notamment le commerce de bas fils, boutons, produits nettoyants et autres.",96.01B,Blanchisserie-teinturerie de détail,"SAS, société par actions simplifiée",2014-12-22,False,,15 RUE DUPHOT,,75001,PARIS,48.86831899980184,2.3255020000027935,,,80864677200018,6,6,True,Liquidation judiciaire,PRESSING,A4_reclass
503135527,FEI DA,FEI DA,"Laverie, pressing, teinturerie, blancherie, location de matériel de nettoyage, retouche.",96.01B,Blanchisserie-teinturerie de détail,"EURL, entreprise unipersonnelle à responsabilité limitée",2008-03-01,False,,64 RUE GUY MOQUET,,75017,PARIS,48.89263199980182,2.3261540000027927,,,50313552700011,1,1,False,,MIXTE,A4_reclass
753023829,SOFIA,SOFIA,"Pressing, commerce de laverie,  nettoyage à sec de textiles, teinturerie de détail, blanchisserie, retoucherie .",96.01B,Blanchisserie-teinturerie de détail,"SARL, société à responsabilité limitée",2012-07-25,False,,10 GRANDE PLACE,,92350,LE PLESSIS-ROBINSON,0,0,SOFIA,Sofia,75302382900017,1,1,False,,MIXTE,A4_reclass
832104855,MATHIAS,MATHIAS,ACHAT VENTE RETOUCHERIE PRESSING TOUS PRODUITS VESTIMENTAIRES,96.01B,Blanchisserie-teinturerie de détail,"SARL, société à responsabilité limitée",2017-09-11,False,,18 RUE ETIENNE DOLET,,92150,SURESNES,48.86873999980183,2.2263810000032045,RETOUCHERIE SURESNES,RETOUCHERIE SURESNES,83210485500016,1,1,False,,PRESSING,A4_reclass
482142536,SAGIKA.NET,SAGIKA.NET,Blanchisserie,96.01B,Blanchisserie-teinturerie de détail,"SARL, société à responsabilité limitée",2005-05-02,False,,49 AVENUE JEAN MOULIN,,92390,VILLENEUVE-LA-GARENNE,48.94028999980182,2.3295640000027813,,,48214253600010,1,1,False,,PRESSING,A4_reclass
799791587,RETOUCHE DE VAUGIRARD,RETOUCHE DE VAUGIRARD,"Retouche de tous vêtements, achat et vente de prêt à porter.",96.01B,Blanchisserie-teinturerie de détail,"SASU, société par actions simplifiée unipersonnelle",2014-01-02,False,,3 RUE DES FAVORITES,,75015,PARIS,48.83969099980186,2.302833000002887,,,79979158700014,1,1,False,,AUTRE,A4_reclass
530682574,LAVERIK 2,LAVERIK 2,Laverie libre service,96.01B,Blanchisserie-teinturerie de détail,"SARL, société à responsabilité limitée",2011-02-15,False,,13 AVENUE SAINT-EXUPERY,,92320,CHATILLON,48.80829699980186,2.2981910000029036,,,53068257400013,1,1,False,,LS_PURE_NEW,A4_reclass
437625924,EURL SOK,EURL SOK,Activité de laverie libre service tant en france qu'a l'etranger et généralement toutes opérations s'y rattachant directement ou indirectement,96.01B,Blanchisserie-teinturerie de détail,"SARL, société à responsabilité limitée",2001-01-10,False,,8 RUE MATHIS,,75019,PARIS,48.890768999801814,2.3760360000025855,,,43762592400018,1,1,False,,LS_PURE_NEW,A4_reclass
437879893,NASSAR SARL,NASSAR SARL,"LA CREATION, L'ACQUISITION, LA PROPRIETE, L'EXPLOITATION SOUS TOUTES SES FORMES, LA VENTE, LA PRISE ET MISE EN GERANCE, LA PRISEA BAIL DE TOUS COMMERCES DE LAVERIE, NETTOYAGE A SEC EN LIBRE SERVICE OU NON, AINSI QUE TOUS COMMERCES Y AFFERENTS",96.01B,Blanchisserie-teinturerie de détail,"SARL, société à responsabilité limitée",2001-04-01,False,,70 RUE RODIER,,75009,PARIS,48.881144999801826,2.3443540000027174,PRESSING RODIER,,43787989300018,1,1,False,,MIXTE,A4_reclass
811903384,HANGOVER,HANGOVER,"Pressing, blanchisserie, teinturerie de détail, retouche.",96.01B,Blanchisserie-teinturerie de détail,"EURL, entreprise unipersonnelle à responsabilité limitée",2015-07-01,False,,47 RUE CUSTINE,,75018,PARIS,48.889356999801834,2.3441440000027183,,PRESSING,81190338400014,1,1,False,,PRESSING,A4_reclass
390979326,SOAPOPERA,SOAPOPERA,Laverie automatiques avec télévision toutes opérations de toute nature s'y rattachant directement ou indirectement,96.01B,Blanchisserie-teinturerie de détail,"SARL, société à responsabilité limitée",1993-03-23,False,,18 RUE DU CHATEAU,,92250,LA GARENNE-COLOMBES,48.905864999801835,2.253385000003095,,SOAPOPERA,39097932600043,3,6,False,,LS_PURE_NEW,A4_reclass
821345337,ARM - NET,ARM - NET,"Pressing, blanchisserie, repassage, transformation et retoucherie de tous types de vêtements",96.01B,Blanchisserie-teinturerie de détail,"SAS, société par actions simplifiée",2016-07-05,False,,1956 AVENUE ROGER SALENGRO,,92370,CHAVILLE,48.80604896219278,2.184466956538076,,ARMNET PRESSING,82134533700017,1,1,False,,PRESSING,A4_reclass
452474497,EROL,EROL,"Pressing, nettoyage a sec, retouche, repassage, cordonnerie",96.01B,Blanchisserie-teinturerie de détail,"SARL, société à responsabilité limitée",2004-01-01,False,,4 BOULEVARD GARIBALDI,,75015,PARIS,48.84746099980186,2.3024150000028882,,,45247449700016,1,1,False,,PRESSING,A4_reclass
490269305,LAVECO,LAVECO,Laverie automatique,96.01B,Blanchisserie-teinturerie de détail,"SARL, société à responsabilité limitée",2006-05-11,False,,119 AVENUE DE CHOISY,,75013,PARIS,48.825748999801846,2.360070000002649,,,49026930500028,1,2,False,,LS_PURE_NEW,A4_reclass
512340225,MAYCLEAN,MAYCLEAN,Blanchisserie-teinturerie de détail,96.01B,Blanchisserie-teinturerie de détail,"SARL, société à responsabilité limitée",2009-04-21,False,,124 AVENUE HENRI GINOUX,,92120,MONTROUGE,48.81343499980183,2.319749000002814,,,51234022500022,1,2,False,,PRESSING,A4_reclass
528030315,BGNJ,BGNJ,BLANCHISSERIE  TEINTURERIE,96.01B,Blanchisserie-teinturerie de détail,"SARL, société à responsabilité limitée",2010-10-16,False,,9 RUE ERNEST DELOISON,,92200,NEUILLY-SUR-SEINE,48.87691899980186,2.2496560000031076,LE COMPTOIR DES BLANCHISSEURS,,52803031500063,2,7,False,,PRESSING,A4_reclass
819812850,RIO,RIO,Laverie automatique en libre servce,96.01B,Blanchisserie-teinturerie de détail,"SAS, société par actions simplifiée",2016-04-08,False,,32 RUE ALBERT 1ER,,92600,ASNIERES-SUR-SEINE,48.91393599980184,2.281990000002977,,,81981285000017,2,2,False,,LS_PURE_NEW,A4_reclass
879093797,LES MAISONS BLANCHES,LES MAISONS BLANCHES,"Service de laverie, organisation de mariage",96.01B,Blanchisserie-teinturerie de détail,"SASU, société par actions simplifiée unipersonnelle",2019-10-21,False,,49 RUE DE PRONY,,75017,PARIS,48.881986999801846,2.3047100000028804,,LES MAISONS BLANCHES,87909379700030,2,3,False,,LS_PURE_NEW,A4_reclass
509110599,DELTA CLEAN,DELTA CLEAN,Pressing teinturerie blanchisserie laverie,96.01B,Blanchisserie-teinturerie de détail,"SARL, société à responsabilité limitée",2008-11-17,False,,139 RUE DE CHARONNE,,75011,PARIS,48.855253999801846,2.3875930000025356,,LA TEINTURERIE,50911059900016,1,1,False,,MIXTE,A4_reclass
712058759,LE GRAND PAVOIS,LE GRAND PAVOIS,PRESTATIONS DE SERVICES. LOCATION DE LOCAUX COMMERCIAUX. TEINTURERIE.,96.01B,Blanchisserie-teinturerie de détail,"SAS, société par actions simplifiée",1971-03-22,False,,199 RUE DE LOURMEL,364 368 RUE LECOURBE,75015,PARIS,48.836888999801836,2.2811180000029756,LE GRAND PAVOIS,,71205875900028,1,1,False,,AUTRE,A4_reclass
483035473,P & L PROMETHEE,P & L PROMETHEE,Horlogerie bijouterie et cadeaux vente,96.01B,Blanchisserie-teinturerie de détail,"SARL, société à responsabilité limitée",2005-08-01,False,,122 BOULEVARD MURAT,,75016,PARIS,48.83728499980183,2.2582930000030714,,,48303547300014,1,1,False,,AUTRE,A4_reclass
839812302,I AM WINNER,I AM WINNER,"Laverie assistée, relais colis.",96.01B,Blanchisserie-teinturerie de détail,"SARL, société à responsabilité limitée",2018-03-21,False,,3 LES BAS LONGCHAMPS,,92220,BAGNEUX,0,0,,I AM WINNER,83981230200017,1,1,False,,LS_PURE_NEW,A4_reclass
383923679,SARL EQUATEUR,SARL EQUATEUR,LAVERIE AUTOMATIQUE,96.01B,Blanchisserie-teinturerie de détail,"SARL, société à responsabilité limitée",1991-12-20,False,,16 RUE DE LA FOLIE-MERICOURT,16-18,75011,PARIS,48.86221099980184,2.374012000002592,,,38392367900013,2,2,False,,LS_PURE_NEW,A4_reclass
514662394,RETOUCHERIE PUTEAUX,RETOUCHERIE PUTEAUX,"Retouche, vente au détail,  pret a proter, et de bijoux  fantaisies",96.01B,Blanchisserie-teinturerie de détail,"SARL, société à responsabilité limitée",2009-08-01,False,,85 BOULEVARD RICHARD WALLACE,,92800,PUTEAUX,48.882423999801844,2.2342800000031726,,,51466239400014,1,1,False,,AUTRE,A4_reclass
542110069,LAVRILUX,LAVRILUX,TEINTURERIE BLANCHISSERIE LAVERIE AUTOMATIQUE,96.01B,Blanchisserie-teinturerie de détail,"SARL, société à responsabilité limitée",1954-01-01,False,,82 AVENUE GAMBETTA,,75020,PARIS,48.86937899980181,2.402532000002475,,,54211006900011,1,1,False,,MIXTE,A4_reclass
789539079,MAJOR CLEAN,MAJOR CLEAN,Pressing blanchisserie teinturerie dépôt relais de catalogue Vpc couture et Retoucherie,96.01B,Blanchisserie-teinturerie de détail,"SAS, société par actions simplifiée",2012-11-23,False,,54 AVENUE PIERRE GRENIER,54 A 56,92100,BOULOGNE-BILLANCOURT,48.83256899980186,2.25355600000309,LEA PRESSING,,78953907900010,1,1,False,,PRESSING,A4_reclass
801277252,2S ARH,2S ARH,"Laverie automatique libre service, activité de conseil et de prestation de services sous-traitance installation se rapportant à la mise en place de laverie automatique et approvisionnement de marchandises s'y rapportant, franchisage nettoyage de tout type de surface.",96.01B,Blanchisserie-teinturerie de détail,"SARL, société à responsabilité limitée",2014-03-17,False,,8 PLACE RHIN ET DANUBE,,75019,PARIS,48.881830999801835,2.393167000002514,RS LAVERIE,I-WASH,80127725200020,1,2,False,,MIXTE,A4_reclass
812961282,G.N LAVCLAIRE,G.N LAVCLAIRE,"Laverie, pressing, nettoyage à sec, blanchisserie automatique",96.01B,Blanchisserie-teinturerie de détail,"SARL, société à responsabilité limitée",2015-08-07,False,,21 RUE DE CONSTANTINOPLE,,75008,PARIS,48.88006599980186,2.319873000002818,,,81296128200025,1,2,False,,MIXTE,A4_reclass
429360654,MASTER COLOR,MASTER COLOR,"LA TRANSFORMATION, LA VENTE, L'ACHAT DE TOUS PRODUITS LIES DIRECTEMENT AU PRET A PORTER ET A LA MAROQUINERIE EN TOUS GENRES ; LATEINTURE SUR BOUTONS, GALONS, CORDONS, VENTE DE TOUS PRODUITS LIES DIRECTEMENT OU INDIRECTEMENT AU PRET A PORTER ; ACHAT, VENTEDE TOUS PRODUITS LIES DIRECTEMENT OU INDIRECTEMENT AU BATIMENT ; TOUS CORPS D'ETAT, CONSTRUCTION, DEMOLITION, DEBLAIEMENT, RENOVATION, CARRELAGE, PLOMBERIE, ELECTRICITE, ISOLATION, MACONNERIEET TOUT CE QUI CONCERNE LES METIERS DU BATIMENT",96.01B,Blanchisserie-teinturerie de détail,"SARL, société à responsabilité limitée",2000-01-20,False,,83 RUE REAUMUR,,75002,PARIS,48.86695799980183,2.3481840000026994,MASTER RENOV,MASTER RENOV',42936065400025,0,2,False,,AUTRE,A4_reclass
812651214,BAWT,BAWT,"Pressing, nettoyages, repassage, retouche.",96.01B,Blanchisserie-teinturerie de détail,"SARL, société à responsabilité limitée",2015-07-22,False,,44 BOULEVARD GARIBALDI,,75015,PARIS,48.84652699980183,2.3055740000028746,BD PRESSING,,81265121400023,1,2,False,,PRESSING,A4_reclass
800894941,K10,K10,Nettoyage à sec blanchisserie.,96.01B,Blanchisserie-teinturerie de détail,"SARL, société à responsabilité limitée",2014-03-01,False,,65 RUE DESNOUETTES,,75015,PARIS,48.83545799980184,2.2861800000029557,,K10,80089494100015,1,1,False,,PRESSING,A4_reclass
834393837,ZEK LAV,ZEK LAV,Laverie automatique,96.01B,Blanchisserie-teinturerie de détail,"SASU, société par actions simplifiée unipersonnelle",2018-01-05,False,,5 AVENUE HENRI JEANNE,,92700,COLOMBES,48.91800695864668,2.239599951148642,LE ZEPHIR,,83439383700036,2,4,False,,LS_PURE_NEW,A4_reclass
442857546,KMW INVESTISSEMENT,KMW INVESTISSEMENT,"La création, l'acquisition et l'exploitation de pressings, blanchisseries, laveries et repasseries",96.01B,Blanchisserie-teinturerie de détail,"SARL, société à responsabilité limitée",2002-07-22,False,,19 AVENUE LONGUEIL,,78600,MAISONS-LAFFITTE,48.94574402547713,2.145037973923334,,,44285754600059,1,4,False,,MIXTE,A4_reclass
